- name: DN1
  latitude: 44.5707306
  longitude: 26.0844123

- name: Henri Coandă International Airport
  latitude: 46.0676873
  longitude: 23.5841968

- name: Crucea Rose Románá Filiala Alba
  latitude: 44.4463975
  longitude: 26.0755474

- name: North Railway Station Neighborhood
  latitude: 47.8349973
  longitude: 27.220316

- name: Stânca Costeşti
  latitude: 48.2448355
  longitude: 26.8040644

- name: Albița Border Crossing Station
  latitude: 46.7872257
  longitude: 28.1429078

- name: Vama Radauti-Prut
  latitude: 48.2448355
  longitude: 26.8040644

- name: Sculeni Romania
  latitude: 47.3161163
  longitude: 27.6097774

- name: Iasi International Airport
  latitude: 47.1771449
  longitude: 27.6173116

- name: Vama Giurgiulești
  latitude: 45.4733254
  longitude: 28.1985845

- name: Punctul de Trecere a Frontierei Sighetul Marmației
  latitude: 47.9385943
  longitude: 23.8771346

- name: Nadlac Border Crossing Point II
  latitude: 46.2122032
  longitude: 20.7644672

- name: Isaccea Border Crossing
  latitude: 45.2839268
  longitude: 28.4530068

- name: Siret Customs Douane
  latitude: 47.986429
  longitude: 26.0626045


